{"_id":{"$oid":"5e2941be25e9bc316cdea6b5"},"geometry":{"type":"Point","_id":{"$oid":"5e2941be25e9bc316cdea6b6"},"coordinates":[{"$numberDouble":"30.359772"},{"$numberDouble":"59.921104"}]},"type":"Feature","properties":{"name":"Youdance SPb","address":"улица Черняховского, 65","city":"Санкт-Петербург","vk":"https://vk.com/youdance_spb"},"__v":{"$numberInt":"0"}},
{"_id":{"$oid":"5e29433f25e9bc316cdea6b7"},"geometry":{"type":"Point","_id":{"$oid":"5e29433f25e9bc316cdea6b8"},"coordinates":[{"$numberDouble":"30.295164"},{"$numberDouble":"59.961922"}]},"type":"Feature","properties":{"name":"Dance Drive","address":"Чкаловский пр., 15","city":"Санкт-Петербург","vk":"https://vk.com/dance.piter"},"__v":{"$numberInt":"0"}},
{"_id":{"$oid":"5e29437f25e9bc316cdea6b9"},"geometry":{"type":"Point","_id":{"$oid":"5e29437f25e9bc316cdea6ba"},"coordinates":[{"$numberDouble":"30.3417877"},{"$numberDouble":"59.917375"}]},"type":"Feature","properties":{"name":"MMDance","address":"Звенигородская улица, 9-11, 3 эт.","city":"Санкт-Петербург","vk":"https://vk.com/mmdance_spb"},"__v":{"$numberInt":"0"}},
{"_id":{"$oid":"5e2943ab25e9bc316cdea6bb"},"geometry":{"type":"Point","_id":{"$oid":"5e2943ab25e9bc316cdea6bc"},"coordinates":[{"$numberDouble":"30.3126"},{"$numberDouble":"59.9358"}]},"type":"Feature","properties":{"name":"MEGAPOLIS SPb","address":"ул. Малая морская, дом 11","city":"Санкт-Петербург","vk":"https://vk.com/dance.megapolis"},"__v":{"$numberInt":"0"}},
{"_id":{"$oid":"5e2943da25e9bc316cdea6bd"},"geometry":{"type":"Point","_id":{"$oid":"5e2943da25e9bc316cdea6be"},"coordinates":[{"$numberDouble":"30.2986801"},{"$numberDouble":"59.9501296"}]},"type":"Feature","properties":{"name":"NON-STOP","address":"пр. Добролюбова 21","city":"Санкт-Петербург","vk":"https://vk.com/non_stop_spb_ru"},"__v":{"$numberInt":"0"}},
{"_id":{"$oid":"5e2b22906a88ed53b4f10296"},"geometry":{"type":"Point","_id":{"$oid":"5e2b22906a88ed53b4f10297"},"coordinates":[{"$numberDouble":"37.601595"},{"$numberDouble":"55.74185"}]},"type":"Feature","properties":{"name":"D.A.N.C.E","address":"Пожарский переулок, д. 10","city":"Москва","vk":"https://vk.com/danceschool.moscow"},"__v":{"$numberInt":"0"}},
{"_id":{"$oid":"5e2b235e6a88ed53b4f102aa"},"geometry":{"type":"Point","_id":{"$oid":"5e2b235e6a88ed53b4f102ab"},"coordinates":[{"$numberDouble":"37.686214"},{"$numberDouble":"55.710911"}]},"type":"Feature","properties":{"name":"D.A.N.C.E","address":"Угрешская улица, д. 2 стр. 34","city":" Москва","vk":"https://vk.com/danceschool.moscow"},"__v":{"$numberInt":"0"}},
{"_id":{"$oid":"5e2b24736a88ed53b4f102ba"},"geometry":{"type":"Point","_id":{"$oid":"5e2b24736a88ed53b4f102bb"},"coordinates":[{"$numberDouble":"83.106153"},{"$numberDouble":"54.87212"}]},"type":"Feature","properties":{"name":"Вираж","address":"Арбузова 1/1","city":"Новосибирск","vk":"https://vk.com/viragestudio"},"__v":{"$numberInt":"0"}},
{"_id":{"$oid":"5e2be5b7008829187c38def5"},"geometry":{"type":"Point","_id":{"$oid":"5e2be5b7008829187c38def6"},"coordinates":[{"$numberDouble":"37.588401"},{"$numberDouble":"55.806961"}]},"type":"Feature","properties":{"name":"Smile","address":"Новодмитровская, д.5а, стр.2","city":"Москва","vk":""},"__v":{"$numberInt":"0"}},
{"_id":{"$oid":"5e2bee5f1b5216214ce6ddcb"},"type":"Feature","geometry":{"type":"Point","_id":{"$oid":"5e2bee5f1b5216214ce6ddcc"},"coordinates":[{"$numberDouble":"84.979422"},{"$numberDouble":"56.464304"}]},"properties":{"name":"Импульс","address":"проспект Кирова 51а, стр. 5","city":"Томск","vk":"https://vk.com/club477330"},"__v":{"$numberInt":"0"}},
{"_id":{"$oid":"5e2bf4cdc216e358be3cb034"},"type":"Feature","geometry":{"type":"Point","_id":{"$oid":"5e2bf4cdc216e358be3cb035"},"coordinates":[{"$numberDouble":"37.661867"},{"$numberDouble":"55.748339"}]},"properties":{"name":"AlphaDance","address":"Шелапутинский переулок 6к3","city":"Москва","vk":"https://vk.com/alphadance_ru"},"__v":{"$numberInt":"0"}},
{"_id":{"$oid":"5e3b1ce52f656a2ff4be9b31"},"type":"Feature","geometry":{"type":"Point","_id":{"$oid":"5e3b1ce52f656a2ff4be9b32"},"coordinates":[{"$numberDouble":"37.671726"},{"$numberDouble":"55.769305"}]},"properties":{"name":"Youdance","address":"ул доброслодская, 3","city":"Москва","vk":"https://vk.com/youdance"},"__v":{"$numberInt":"0"}}